{"type":"FeatureCollection","features":[{"type":"Feature","geometry":{"type":"Point","coordinates":[29.789336184000035,40.74574729400007]},"properties":{"name":"Akülü Sandalye Şarj İstasyonu","address":"Tütünçiftlik Kobis İstasyonu Yanı"}},{"type":"Feature","geometry":{"type":"Point","coordinates":[29.44013056600005,40.80607004900003]},"properties":{"name":"Akülü Sandalye Şarj İstasyonu","address":"Gebze Belediyesi önü"}},{"type":"Feature","geometry":{"type":"Point","coordinates":[29.43940692700005,40.80114498100005]},"properties":{"name":"Akülü Sandalye Şarj İstasyonu","address":"Fatma Hanım Parkı"}},{"type":"Feature","geometry":{"type":"Point","coordinates":[29.430994285000054,40.79948338200006]},"properties":{"name":"Akülü Sandalye Şarj İstasyonu","address":"Mustafa Paşa Cami Gölcüönü Meydanı çarşı başı"}},{"type":"Feature","geometry":{"type":"Point","coordinates":[29.421925680000072,40.795408106000025]},"properties":{"name":"Akülü Sandalye Şarj İstasyonu","address":"Eski Trafo Meydanı"}},{"type":"Feature","geometry":{"type":"Point","coordinates":[29.383128697000075,40.805533737000076]},"properties":{"name":"Akülü Sandalye Şarj İstasyonu","address":"Beylikbağı Parkı"}},{"type":"Feature","geometry":{"type":"Point","coordinates":[29.431253983000033,40.80775221400006]},"properties":{"name":"Akülü Sandalye Şarj İstasyonu","address":"Akse Sapağı"}},{"type":"Feature","geometry":{"type":"Point","coordinates":[29.818848046000028,40.72012661900004]},"properties":{"name":"Akülü Sandalye Şarj İstasyonu","address":"Gölcük Engelsiz Yaşam Derneği"}},{"type":"Feature","geometry":{"type":"Point","coordinates":[30.152915543000063,41.06982870100006]},"properties":{"name":"Akülü Sandalye Şarj İstasyonu","address":"Kandıra Belediyesi Önü"}},{"type":"Feature","geometry":{"type":"Point","coordinates":[30.149923673000046,41.06784675100005]},"properties":{"name":"Akülü Sandalye Şarj İstasyonu","address":"Şehit Ümit Balkan Parkı"}},{"type":"Feature","geometry":{"type":"Point","coordinates":[29.617146777000073,40.694873735000044]},"properties":{"name":"Akülü Sandalye Şarj İstasyonu","address":"Karamürsel Hükümet Konağı Önü"}},{"type":"Feature","geometry":{"type":"Point","coordinates":[29.618278713000052,40.69153636300007]},"properties":{"name":"Akülü Sandalye Şarj İstasyonu","address":"Karamürsel Otogarı"}},{"type":"Feature","geometry":{"type":"Point","coordinates":[29.830693478000057,40.757306018000065]},"properties":{"name":"Akülü Sandalye Şarj İstasyonu","address":"Derince Belediyesinin yanındaki otopark"}},{"type":"Feature","geometry":{"type":"Point","coordinates":[29.794303377000062,40.75826865600004]},"properties":{"name":"Akülü Sandalye Şarj İstasyonu","address":"Mimar Sinan Cami Yanı"}},{"type":"Feature","geometry":{"type":"Point","coordinates":[29.380375840000056,40.83065675800003]},"properties":{"name":"Akülü Sandalye Şarj İstasyonu","address":"Çayırova Belediyesi Önü"}},{"type":"Feature","geometry":{"type":"Point","coordinates":[29.830664685000045,40.757539946000065]},"properties":{"name":"Akülü Sandalye Şarj İstasyonu","address":"Derince İstasyon Kent Meydanı"}},{"type":"Feature","geometry":{"type":"Point","coordinates":[29.959626245000038,40.76495924000005]},"properties":{"name":"Akülü Sandalye Şarj İstasyonu","address":"Yenişehir mahallesi Aile ve Sosyal Politikalar İl Müdürlüğü içi"}},{"type":"Feature","geometry":{"type":"Point","coordinates":[29.37214608100004,40.82436284100004]},"properties":{"name":"Akülü Sandalye Şarj İstasyonu","address":"Çayırova Yeni Mahalle taksi durağı önü"}},{"type":"Feature","geometry":{"type":"Point","coordinates":[29.93005974500005,40.76446613200005]},"properties":{"name":"Akülü Sandalye Şarj İstasyonu","address":"Ömerağa Mahallesi İstiklal Caddesi  İzmit KOCAELİ"}}]}