{"type":"FeatureCollection","features":[{"type":"Feature","geometry":{"type":"Point","coordinates":[29.29859519,40.84401073]},"properties":{"name":"Merkez Hizmet Binası","address":"Evliya Çelebi Mh. Hat Boyu Cd. No:17 34945 Tuzla / İST","city":"istanbul"}},{"type":"Feature","geometry":{"type":"Point","coordinates":[29.3170166,40.85881724]},"properties":{"name":"Şelale Park","address":"Aydıntepe mahallesi, Aydınlı Yolu Cd. No:43, 34947 Tuzla/İstanbul","city":"istanbul"}},{"type":"Feature","geometry":{"type":"Point","coordinates":[29.31319177,40.81557124]},"properties":{"name":"Nikah Sarayı","address":"Cami, Balıkçılar Sk. No:7, 34940 Tuzla/İstanbul","city":"istanbul"}},{"type":"Feature","geometry":{"type":"Point","coordinates":[29.30260241,40.81485061]},"properties":{"name":"Sahil Çay Evi ","address":"Cami, Sahilyolu Cd","city":"istanbul"}},{"type":"Feature","geometry":{"type":"Point","coordinates":[29.30302083,40.84450785]},"properties":{"name":"Tuzla Devlet Hastanesi","address":"İçmeler Mahallesi, Piri Reis Caddesi, No: 74 Tuzla / İstanbul","city":"istanbul"}},{"type":"Feature","geometry":{"type":"Point","coordinates":[29.33688909,40.86220089]},"properties":{"name":"Aydınlı Toki Okan Park","address":"Aydınlı Mah. Okan Sok. No:4","city":"istanbul"}},{"type":"Feature","geometry":{"type":"Point","coordinates":[29.29828942,40.855988523]},"properties":{"name":"Tezer Taşkıran Ortaokulu","address":"Aydıntepe, Batu Sk. No:53, 34947 Tuzla/İstanbul","city":"istanbul"}},{"type":"Feature","geometry":{"type":"Point","coordinates":[29.33812022,40.86574056]},"properties":{"name":"Oruç Reis İlkokulu","address":"Aydınlı, Erdemli Sk., 34953 Tuzla / İstanbul","city":"istanbul"}},{"type":"Feature","geometry":{"type":"Point","coordinates":[29.30031449,40.85393215]},"properties":{"name":"Aydıntepe Fatih Sultan Mehmet Parkı","address":"Aydıntepe Mah. Batu Sok.","city":"istanbul"}}]}