{"type":"FeatureCollection","features":[{"type":"Feature","geometry":{"type":"Point","coordinates":[29.29859519,40.84401073]},"properties":{"name":"Merkez Hizmet Binası","address":"Evliya Çelebi Mh. Hat Boyu Cd. No:17 34945 Tuzla / İST","city":"istanbul"}},{"type":"Feature","geometry":{"type":"Point","coordinates":[29.3170166,40.85881724]},"properties":{"name":"Şelale Park","address":"Aydıntepe mahallesi, Aydınlı Yolu Cd. No:43, 34947 Tuzla/İstanbul","city":"istanbul"}},{"type":"Feature","geometry":{"type":"Point","coordinates":[29.31319177,40.81557124]},"properties":{"name":"Nikah Sarayı","address":"Cami, Balıkçılar Sk. No:7, 34940 Tuzla/İstanbul","city":"istanbul"}},{"type":"Feature","geometry":{"type":"Point","coordinates":[29.30260241,40.81485061]},"properties":{"name":"Sahil Çay Evi ","address":"Cami, Sahilyolu Cd","city":"istanbul"}},{"type":"Feature","geometry":{"type":"Point","coordinates":[29.30302083,40.84450785]},"properties":{"name":"Tuzla Devlet Hastanesi","address":"İçmeler Mahallesi, Piri Reis Caddesi, No: 74 Tuzla / İstanbul","city":"istanbul"}},{"type":"Feature","geometry":{"type":"Point","coordinates":[29.33688909,40.86220089]},"properties":{"name":"Aydınlı Toki Okan Park","address":"Aydınlı Mah. Okan Sok. No:4","city":"istanbul"}},{"type":"Feature","geometry":{"type":"Point","coordinates":[29.29828942,40.855988523]},"properties":{"name":"Tezer Taşkıran Ortaokulu","address":"Aydıntepe, Batu Sk. No:53, 34947 Tuzla/İstanbul","city":"istanbul"}},{"type":"Feature","geometry":{"type":"Point","coordinates":[29.33812022,40.86574056]},"properties":{"name":"Oruç Reis İlkokulu","address":"Aydınlı, Erdemli Sk., 34953 Tuzla / İstanbul","city":"istanbul"}},{"type":"Feature","geometry":{"type":"Point","coordinates":[29.30031449,40.85393215]},"properties":{"name":"Aydıntepe Fatih Sultan Mehmet Parkı","address":"Aydıntepe Mah. Batu Sok.","city":"istanbul"}},{"type":"Feature","geometry":{"type":"Point","coordinates":[29.789336184000035,40.74574729400007]},"properties":{"name":"Akülü Sandalye Şarj İstasyonu","address":"Tütünçiftlik Kobis İstasyonu Yanı","city":"kocaeli"}},{"type":"Feature","geometry":{"type":"Point","coordinates":[29.44013056600005,40.80607004900003]},"properties":{"name":"Akülü Sandalye Şarj İstasyonu","address":"Gebze Belediyesi önü","city":"kocaeli"}},{"type":"Feature","geometry":{"type":"Point","coordinates":[29.43940692700005,40.80114498100005]},"properties":{"name":"Akülü Sandalye Şarj İstasyonu","address":"Fatma Hanım Parkı","city":"kocaeli"}},{"type":"Feature","geometry":{"type":"Point","coordinates":[29.430994285000054,40.79948338200006]},"properties":{"name":"Akülü Sandalye Şarj İstasyonu","address":"Mustafa Paşa Cami Gölcüönü Meydanı çarşı başı","city":"kocaeli"}},{"type":"Feature","geometry":{"type":"Point","coordinates":[29.421925680000072,40.795408106000025]},"properties":{"name":"Akülü Sandalye Şarj İstasyonu","address":"Eski Trafo Meydanı","city":"kocaeli"}},{"type":"Feature","geometry":{"type":"Point","coordinates":[29.383128697000075,40.805533737000076]},"properties":{"name":"Akülü Sandalye Şarj İstasyonu","address":"Beylikbağı Parkı","city":"kocaeli"}},{"type":"Feature","geometry":{"type":"Point","coordinates":[29.431253983000033,40.80775221400006]},"properties":{"name":"Akülü Sandalye Şarj İstasyonu","address":"Akse Sapağı","city":"kocaeli"}},{"type":"Feature","geometry":{"type":"Point","coordinates":[29.818848046000028,40.72012661900004]},"properties":{"name":"Akülü Sandalye Şarj İstasyonu","address":"Gölcük Engelsiz Yaşam Derneği","city":"kocaeli"}},{"type":"Feature","geometry":{"type":"Point","coordinates":[30.152915543000063,41.06982870100006]},"properties":{"name":"Akülü Sandalye Şarj İstasyonu","address":"Kandıra Belediyesi Önü","city":"kocaeli"}},{"type":"Feature","geometry":{"type":"Point","coordinates":[30.149923673000046,41.06784675100005]},"properties":{"name":"Akülü Sandalye Şarj İstasyonu","address":"Şehit Ümit Balkan Parkı","city":"kocaeli"}},{"type":"Feature","geometry":{"type":"Point","coordinates":[29.617146777000073,40.694873735000044]},"properties":{"name":"Akülü Sandalye Şarj İstasyonu","address":"Karamürsel Hükümet Konağı Önü","city":"kocaeli"}},{"type":"Feature","geometry":{"type":"Point","coordinates":[29.618278713000052,40.69153636300007]},"properties":{"name":"Akülü Sandalye Şarj İstasyonu","address":"Karamürsel Otogarı","city":"kocaeli"}},{"type":"Feature","geometry":{"type":"Point","coordinates":[29.830693478000057,40.757306018000065]},"properties":{"name":"Akülü Sandalye Şarj İstasyonu","address":"Derince Belediyesinin yanındaki otopark","city":"kocaeli"}},{"type":"Feature","geometry":{"type":"Point","coordinates":[29.794303377000062,40.75826865600004]},"properties":{"name":"Akülü Sandalye Şarj İstasyonu","address":"Mimar Sinan Cami Yanı","city":"kocaeli"}},{"type":"Feature","geometry":{"type":"Point","coordinates":[29.380375840000056,40.83065675800003]},"properties":{"name":"Akülü Sandalye Şarj İstasyonu","address":"Çayırova Belediyesi Önü","city":"kocaeli"}},{"type":"Feature","geometry":{"type":"Point","coordinates":[29.830664685000045,40.757539946000065]},"properties":{"name":"Akülü Sandalye Şarj İstasyonu","address":"Derince İstasyon Kent Meydanı","city":"kocaeli"}},{"type":"Feature","geometry":{"type":"Point","coordinates":[29.959626245000038,40.76495924000005]},"properties":{"name":"Akülü Sandalye Şarj İstasyonu","address":"Yenişehir mahallesi Aile ve Sosyal Politikalar İl Müdürlüğü içi","city":"kocaeli"}},{"type":"Feature","geometry":{"type":"Point","coordinates":[29.37214608100004,40.82436284100004]},"properties":{"name":"Akülü Sandalye Şarj İstasyonu","address":"Çayırova Yeni Mahalle taksi durağı önü","city":"kocaeli"}},{"type":"Feature","geometry":{"type":"Point","coordinates":[29.93005974500005,40.76446613200005]},"properties":{"name":"Akülü Sandalye Şarj İstasyonu","address":"Ömerağa Mahallesi İstiklal Caddesi  İzmit KOCAELİ","city":"kocaeli"}}]}